City_ID,City,Country,Max Temp,Current Description,Lat,Lng,Hotel Name
8,Cherskiy,RU,33.8,overcast clouds,68.75,161.3,Gostinitsa
9,Punta Arenas,CL,46.51,scattered clouds,-53.15,-70.9167,Hotel Hain
19,Thompson,CA,32.16,few clouds,55.7435,-97.8558,Burntwood Hotel
29,Hermanus,ZA,49.8,overcast clouds,-34.4187,19.2345,Misty Waves Boutique Hotel
34,Ushuaia,AR,46.06,few clouds,-54.8,-68.3,Albatross Hotel
54,Khatanga,RU,29.98,light snow,71.9667,102.5,"""Khatanga"""
62,Hovd,MN,25.86,clear sky,48.0056,91.6419,Hotel Buyant
75,Barrow,US,30.22,light snow,71.2906,-156.7887,King Eider Inn
81,Tasiilaq,GL,41.16,overcast clouds,65.6145,-37.6368,The Red House
85,Gravdal,NO,47.39,few clouds,68.1214,13.5031,Skreda Rorbusuiter
97,Yar-Sale,RU,30.34,overcast clouds,66.8333,70.8333,Yalemd
100,Genhe,CN,45.55,few clouds,50.7833,121.5167,Companionship Hotel
101,Aklavik,CA,32.92,overcast clouds,68.2191,-135.0107,Aklavik Inn
104,Esso,RU,40.21,scattered clouds,55.9333,158.7,Paramushir Tur
107,Tuktoyaktuk,CA,33.8,broken clouds,69.4541,-133.0374,End of The Road Ltd.
109,Schmolln,DE,47.44,broken clouds,50.9,12.3667,Hotel und Restaurant Bellevue
128,Akureyri,IS,46.33,overcast clouds,65.6835,-18.0878,Akureyri - Berjaya Iceland Hotels
133,Longyearbyen,SJ,35.44,fog,78.2186,15.6401,"Radisson Blu Polar Hotel, Spitsbergen"
153,Nikolskoye,RU,44.49,scattered clouds,59.7035,30.7861,Tourist House - Sablino
159,Nome,US,47.16,clear sky,64.5011,-165.4064,Dredge 7 Inn
160,Keuruu,FI,41.81,scattered clouds,62.2667,24.7,Hostelli Nonna
168,Clyde River,CA,28.63,light snow,70.4692,-68.5914,Qamaq Hotel
169,Torbay,CA,49.57,clear sky,47.6666,-52.7314,Gallows Cove
181,Pankrushikha,RU,29.93,few clouds,53.8319,80.3406,"Гостиница ""Уют"""
186,Eucaliptus,BO,45.59,clear sky,-17.5833,-67.5167,Hotel Serrano
191,Dalvik,IS,46.33,overcast clouds,65.9702,-18.5286,Dalvík Hostel
211,Yurino,RU,47.3,broken clouds,56.2942,46.3039,Sheremetev Castle
231,Qaqortoq,GL,36.3,light rain,60.7167,-46.0333,Siniffik Inn
243,Yekaterinoslavka,RU,45.55,clear sky,50.3734,129.1139,Oktyabr'skaya
246,Ayagoz,KZ,24.22,clear sky,47.9714,80.4392,Gostinitsa Nur
254,Sorland,NO,48.06,clear sky,67.667,12.6934,Sjybrygga fiskecamp
255,Iqaluit,CA,33.53,overcast clouds,63.7506,-68.5145,Frobisher Inn
259,Sioux Lookout,CA,48.27,broken clouds,50.1001,-91.917,Knobby's Fly-In Camps
264,Nuuk,GL,34.41,broken clouds,64.1835,-51.7216,Vandrehuset
265,Tigil,RU,42.8,light rain,57.8,158.6667,Tigil'
269,Vardo,NO,42.78,overcast clouds,70.3705,31.1107,Vardø Hotel AS
270,Severo-Kurilsk,RU,49.68,overcast clouds,50.6789,156.125,Kak Doma
272,Pevek,RU,33.44,overcast clouds,69.7008,170.3133,Severnoye Zoloto
274,Olafsvik,IS,46.26,overcast clouds,64.8945,-23.7142,Hotel Olafsvik
277,Paamiut,GL,34.65,snow,61.994,-49.6678,Pistut
287,Kerman,IR,49.86,clear sky,30.2832,57.0788,هتل آپارتمان آسام
290,Nanortalik,GL,39.83,light rain,60.1432,-45.2371,Hotel Kap Farvel
295,Kristianstad,SE,48.34,fog,56.0313,14.1524,First Hotel Christian IV
298,Talnakh,RU,29.21,overcast clouds,69.4865,88.3972,Talnakh Hotel
304,Berlevag,NO,40.95,overcast clouds,70.8578,29.0864,Kvitbrakka
314,Pangnirtung,CA,33.53,overcast clouds,66.1451,-65.7125,Kilabuk Lodge
324,La Ronge,CA,48.45,overcast clouds,55.1001,-105.2842,Northland Motor Hotel
325,Ilulissat,GL,32.02,broken clouds,69.2167,-51.1,Hotel Arctic
328,Molochnoye,RU,42.33,broken clouds,59.2917,39.6787,"""Detskiy Sad Dlya Vzroslykh"""
332,La Paz,BO,46.38,few clouds,-16.5,-68.15,Hotel Presidente
342,Narsaq,GL,39.42,light rain,60.9167,-46.05,Sleep In Narsaq
343,Ust-Uda,RU,33.13,overcast clouds,54.1742,103.0304,Gostinitsa Ust'-Uda Shans
347,Novopavlovka,RU,32.56,overcast clouds,51.2172,109.2091,Vizit
348,Vetlanda,SE,45.32,scattered clouds,57.4289,15.0776,Best Western Vetlanda Stadshotell
349,Inta,RU,33.28,overcast clouds,66.0317,60.1659,Apartments in Inta city
354,Anadyr,RU,39.7,scattered clouds,64.75,177.4833,Отке17.ру — жильё для командированных
362,Mehamn,NO,40.91,broken clouds,71.0357,27.8492,Mehamn Arctic Hotel AS
366,Leningradskiy,RU,30.24,overcast clouds,69.3833,178.4167,Gostinitsa
371,Andenes,NO,39.92,clear sky,69.3143,16.1194,Hotell Marena
379,Waipawa,NZ,45.07,light rain,-41.4122,175.5153,Tora Coastal Walk
384,Batsfjord,NO,40.93,broken clouds,70.6345,29.7185,Adventure Apartements
385,Honningsvag,NO,40.75,overcast clouds,70.9821,25.9704,Nordkapp Vandrerhjem
392,Bagdarin,RU,36.34,light rain,54.4333,113.6,Gostevoy Dom Terem
394,Zhezkazgan,KZ,21.18,clear sky,47.8043,67.7144,Hotel Zumrat
400,Ancud,CL,45.7,scattered clouds,-41.8697,-73.8203,Hotel Arena Gruesa
403,Njombe,TZ,49.82,few clouds,-9.3333,34.7667,Hillside Hotel
413,Deep River,CA,43.95,clear sky,46.1001,-77.4995,Deep River Motel
417,Atasu,KZ,24.85,clear sky,48.6814,71.6433,Diana
423,Slyudyanka,RU,32.83,overcast clouds,51.6594,103.7061,Delight
431,Hornepayne,CA,47.19,overcast clouds,49.2138,-84.7705,Kay-Vee Lodge Ltd
435,Naryan-Mar,RU,34.09,light snow,67.6713,53.087,Hostel Agat
436,Karatau,KZ,39.74,overcast clouds,43.1667,70.4667,Baza Zika
443,Rzhev,RU,43.32,overcast clouds,56.2624,34.3282,Hostel Na Razina
446,Severodvinsk,RU,44.71,light rain,64.5635,39.8302,Park Hotel
447,Shenkursk,RU,46.17,overcast clouds,62.1091,42.896,"""Vaga"" hotel"
476,Ustka,PL,44.65,scattered clouds,54.5805,16.8619,Hotel Royal Baltic Luxury Boutique
508,Langres,FR,47.19,overcast clouds,47.8333,5.3333,Le Belvédère des Remparts
509,Tromso,NO,35.38,broken clouds,69.6496,18.957,"Radisson Blu Hotel, Tromsø"
510,Masty,BY,48.15,overcast clouds,53.4122,24.5387,Gostinitsa Masty
512,Nizhneangarsk,RU,35.82,light rain,55.7833,109.55,Хостел
515,Chumikan,RU,44.51,clear sky,54.7183,135.315,Fortuna
517,Bakchar,RU,25.9,broken clouds,57.0186,82.0711,Gostinitsa Gostevoy Dom
523,Calvinia,ZA,48.9,overcast clouds,-31.4707,19.776,Die Lemoenhuis
527,Hudson Bay,CA,47.75,overcast clouds,52.85,-102.3842,Norwood Motel LTD
534,Khani,GE,47.77,clear sky,41.9563,42.9566,კურორტი ზეკარი/Resort Zekari
535,Havre-Saint-Pierre,CA,48.56,few clouds,50.2334,-63.5986,Auberge Niapiskau 2
553,Kirishi,RU,44.56,overcast clouds,59.4471,32.0205,Sputnik
559,Valday,RU,40.39,broken clouds,57.9747,33.2525,Amaks Valdayskiye Zori
576,Hofn,IS,46.65,overcast clouds,64.2539,-15.2082,Hótel Höfn
585,Marienburg,PL,47.88,broken clouds,54.0359,19.0266,Hotel Centrum Malbork
590,Tazovskiy,RU,31.84,overcast clouds,67.4667,78.7,TazHostel
591,Ushtobe,KZ,28.83,clear sky,45.2514,77.9838,"Gostinitsa ""Diyar"""
607,Arkhangelsk,RU,44.71,moderate rain,64.5401,40.5433,DVINA HOTEL
610,Nyurba,RU,30.2,broken clouds,63.2842,118.3319,"Гостиница ""Comfort"""
612,Voznesenye,RU,45.36,overcast clouds,61.0106,35.4781,Gostinitsa
615,Mezen,RU,38.5,overcast clouds,65.8522,44.24,Gostevoy Dom Everest
618,Arys,KZ,49.69,clear sky,42.4252,68.795,Gostinitsa
620,Eyrarbakki,IS,48.25,overcast clouds,63.863,-21.1481,Guesthouse 77
621,Kharp,RU,22.44,scattered clouds,66.8014,65.8081,"Hotel ""Sob"""
623,Ust-Tsilma,RU,35.56,light rain,65.441,52.1498,U Praskov'i
626,Bolotnoye,RU,31.53,overcast clouds,55.6717,84.3981,"Gostinichnyy Dom ""Otdykh"""
635,Huancavelica,PE,36.05,overcast clouds,-12.7667,-74.9833,Hotel Victoria Huancavelica
639,Saint-Augustin,CA,49.84,overcast clouds,51.226,-58.6502,Riverview Inn
641,Skjervoy,NO,35.6,clear sky,70.0311,20.9714,Skjervøy fiskecamp AS
645,Suntar,RU,31.37,broken clouds,62.1444,117.6319,Гостевая квартира
650,Coihaique,CL,46.35,clear sky,-45.5752,-72.0662,Diego De Almagro Coyhaique
651,Troitsko-Pechorsk,RU,33.85,overcast clouds,62.7084,56.1964,Pechora Gostinitsa
